[
  {
    "business_status": "OPERATIONAL",
    "geometry": {
      "location": {
        "lat": 23.6667231,
        "lng": 86.14790339999999
      },
      "viewport": {
        "northeast": {
          "lat": 23.6681086802915,
          "lng": 86.14926903029149
        },
        "southwest": {
          "lat": 23.6654107197085,
          "lng": 86.14657106970849
        }
      }
    },
    "icon": "https://maps.gstatic.com/mapfiles/place_api/icons/v1/png_71/generic_business-71.png",
    "icon_background_color": "#7B9EB0",
    "icon_mask_base_uri": "https://maps.gstatic.com/mapfiles/place_api/icons/v2/generic_pinlet",
    "name": "Dr. Shivam Dental & Orthodontic Clinic",
    "opening_hours": {
      "open_now": false
    },
    "photos": [
      {
        "height": 3120,
        "html_attributions": [
          "<a href=\"https://maps.google.com/maps/contrib/112089238710934021681\">Dr. Shivam Dental &amp; Orthodontic Clinic</a>"
        ],
        "photo_reference": "AdCG2DNWehXPcdcdjPrWyi4yM4Q5lsns1rVz_kV4oItPjGbcAgxzdg4pnMY62fO_uWh4ksd2mA6wtIonFaez9_QUZfYnLDNT3KBNMqvc9UVsIZQNcF8KHlftJ2evaAZwhPznk8nTyON37vW1NS8hrZ0_w1WxeYWPlzGRGUZz_US1CH1rs3W_",
        "width": 4160
      }
    ],
    "place_id": "ChIJjXEHPbMj9DkRkaAYVkTiAQ0",
    "plus_code": {
      "compound_code": "M48X+M5 Bokaro Steel City, Jharkhand, India",
      "global_code": "7MM8M48X+M5"
    },
    "rating": 4.9,
    "reference": "ChIJjXEHPbMj9DkRkaAYVkTiAQ0",
    "scope": "GOOGLE",
    "types": [
      "dentist",
      "health",
      "point_of_interest",
      "establishment"
    ],
    "user_ratings_total": 42,
    "vicinity": "City Center, Plot No. JC - 2, Near nut Khat Sweets and royal public school, Sector 4, Bokaro Steel City"
  },
  {
    "business_status": "OPERATIONAL",
    "geometry": {
      "location": {
        "lat": 23.6667597,
        "lng": 86.14844930000001
      },
      "viewport": {
        "northeast": {
          "lat": 23.6681546802915,
          "lng": 86.1498193802915
        },
        "southwest": {
          "lat": 23.66545671970849,
          "lng": 86.14712141970848
        }
      }
    },
    "icon": "https://maps.gstatic.com/mapfiles/place_api/icons/v1/png_71/generic_business-71.png",
    "icon_background_color": "#7B9EB0",
    "icon_mask_base_uri": "https://maps.gstatic.com/mapfiles/place_api/icons/v2/generic_pinlet",
    "name": "Dr. Hussain Dental Clinic",
    "opening_hours": {
      "open_now": false
    },
    "photos": [
      {
        "height": 4024,
        "html_attributions": [
          "<a href=\"https://maps.google.com/maps/contrib/110879437622568341068\">Dr. Hussain Dental Clinic</a>"
        ],
        "photo_reference": "AdCG2DNWj8s7ypJQ-bPKpJg7EGM30lHzi8AW5u3frLkoazac2U9DIUrGrXtq3eqqp-y7MbUz_7NlMBcwpVoVkok4vONIlPA7o1FRyDchRL4gQ7rvtm30_GV3aMFsg9oXVNLHDUyBs-JMPBx4l_7OF_dl5wYCCX-aKesQ3a0j1tSHnT1HYYNE",
        "width": 6048
      }
    ],
    "place_id": "ChIJpTFfDqIj9DkR80Of6Kc2KI8",
    "plus_code": {
      "compound_code": "M48X+P9 Bokaro Steel City, Jharkhand, India",
      "global_code": "7MM8M48X+P9"
    },
    "rating": 5,
    "reference": "ChIJpTFfDqIj9DkR80Of6Kc2KI8",
    "scope": "GOOGLE",
    "types": [
      "dentist",
      "health",
      "point_of_interest",
      "establishment"
    ],
    "user_ratings_total": 1,
    "vicinity": "HF1, City Centre, sec 4/C, Bokaro Steel City"
  },
  {
    "business_status": "OPERATIONAL",
    "geometry": {
      "location": {
        "lat": 23.671585,
        "lng": 86.1481326
      },
      "viewport": {
        "northeast": {
          "lat": 23.6729683302915,
          "lng": 86.14948273029151
        },
        "southwest": {
          "lat": 23.67027036970849,
          "lng": 86.1467847697085
        }
      }
    },
    "icon": "https://maps.gstatic.com/mapfiles/place_api/icons/v1/png_71/generic_business-71.png",
    "icon_background_color": "#7B9EB0",
    "icon_mask_base_uri": "https://maps.gstatic.com/mapfiles/place_api/icons/v2/generic_pinlet",
    "name": "SHREE KAILASH ORTHO & SURGICAL",
    "opening_hours": {
      "open_now": false
    },
    "place_id": "ChIJd2tjW0wi9DkRORICkd5wOSI",
    "plus_code": {
      "compound_code": "M4CX+J7 Bokaro Steel City, Jharkhand, India",
      "global_code": "7MM8M4CX+J7"
    },
    "rating": 3.5,
    "reference": "ChIJd2tjW0wi9DkRORICkd5wOSI",
    "scope": "GOOGLE",
    "types": [
      "dentist",
      "health",
      "point_of_interest",
      "establishment"
    ],
    "user_ratings_total": 2,
    "vicinity": "C-2, Laxmi Market, Bokaro Steel City"
  },
  {
    "business_status": "OPERATIONAL",
    "geometry": {
      "location": {
        "lat": 23.6671891,
        "lng": 86.14778009999999
      },
      "viewport": {
        "northeast": {
          "lat": 23.66856868029151,
          "lng": 86.1491428302915
        },
        "southwest": {
          "lat": 23.6658707197085,
          "lng": 86.14644486970849
        }
      }
    },
    "icon": "https://maps.gstatic.com/mapfiles/place_api/icons/v1/png_71/generic_business-71.png",
    "icon_background_color": "#7B9EB0",
    "icon_mask_base_uri": "https://maps.gstatic.com/mapfiles/place_api/icons/v2/generic_pinlet",
    "name": "Dr. Kumar's Studio",
    "opening_hours": {
      "open_now": false
    },
    "photos": [
      {
        "height": 3000,
        "html_attributions": [
          "<a href=\"https://maps.google.com/maps/contrib/112366417649477248503\">Dr. Kumar&#39;s Studio</a>"
        ],
        "photo_reference": "AdCG2DO6g7N6mnpjjjOW5ZZlewgv9CxQoZVrOubnO-4pkJlrryveli29JpG4l9tjcdx2VD88M4drFHJNXnF_g_gG7GgkDjSAalI_X8PpC-gaLS1eRPOEcYkGYZjujz21HHpxlxr3Fs7pgHGZoflI-ExkHh-EKteIKjZnqy9iGaAcLNQnmKZ2",
        "width": 4000
      }
    ],
    "place_id": "ChIJFVeVRK8j9DkRXfhNN-k9Zek",
    "plus_code": {
      "compound_code": "M48X+V4 Bokaro Steel City, Jharkhand, India",
      "global_code": "7MM8M48X+V4"
    },
    "rating": 5,
    "reference": "ChIJFVeVRK8j9DkRXfhNN-k9Zek",
    "scope": "GOOGLE",
    "types": [
      "dentist",
      "health",
      "point_of_interest",
      "establishment"
    ],
    "user_ratings_total": 24,
    "vicinity": "HE-07, 1st Floor, City Centre, Near Nut Khat Sweets & Airtel Payment Bank, Sector 4, Bokaro Steel City"
  },
  {
    "business_status": "OPERATIONAL",
    "geometry": {
      "location": {
        "lat": 23.6676857,
        "lng": 86.1461738
      },
      "viewport": {
        "northeast": {
          "lat": 23.66905473029151,
          "lng": 86.14745408029151
        },
        "southwest": {
          "lat": 23.6663567697085,
          "lng": 86.14475611970849
        }
      }
    },
    "icon": "https://maps.gstatic.com/mapfiles/place_api/icons/v1/png_71/generic_business-71.png",
    "icon_background_color": "#7B9EB0",
    "icon_mask_base_uri": "https://maps.gstatic.com/mapfiles/place_api/icons/v2/generic_pinlet",
    "name": "Dr D K Bhattacharjee",
    "place_id": "ChIJXbGyy7Ij9DkRYn-FdiB0nO4",
    "reference": "ChIJXbGyy7Ij9DkRYn-FdiB0nO4",
    "scope": "GOOGLE",
    "types": [
      "dentist",
      "health",
      "point_of_interest",
      "establishment"
    ],
    "vicinity": "M49W+3FF, Sector 4, Bokaro Steel City"
  },
  {
    "business_status": "OPERATIONAL",
    "geometry": {
      "location": {
        "lat": 23.6673119,
        "lng": 86.14506349999999
      },
      "viewport": {
        "northeast": {
          "lat": 23.6686837802915,
          "lng": 86.14642213029151
        },
        "southwest": {
          "lat": 23.6659858197085,
          "lng": 86.14372416970849
        }
      }
    },
    "icon": "https://maps.gstatic.com/mapfiles/place_api/icons/v1/png_71/generic_business-71.png",
    "icon_background_color": "#7B9EB0",
    "icon_mask_base_uri": "https://maps.gstatic.com/mapfiles/place_api/icons/v2/generic_pinlet",
    "name": "GAUTAM DENTAL CARE",
    "opening_hours": {
      "open_now": false
    },
    "photos": [
      {
        "height": 1280,
        "html_attributions": [
          "<a href=\"https://maps.google.com/maps/contrib/118363060197063815331\">GAUTAM DENTAL CARE</a>"
        ],
        "photo_reference": "AdCG2DNr1yTvyN0HPwUkssgtfS5nm3g-27QEsSfVo0f2FZGA51__ktrj9WiFkiIYJWTFZMrY1KhGnPM2EmQZcpFynXbzME-kDF1YgozTzPornI0eQP0sYA3DPB3H_xDyG9ZlnDgy8LPYPS08uGK5ZTVVszdKmhKm_iP-5z7_EtFb3--fxmHm",
        "width": 960
      }
    ],
    "place_id": "ChIJAQAAADUi9DkRyBuVrO9-FeY",
    "rating": 4.5,
    "reference": "ChIJAQAAADUi9DkRyBuVrO9-FeY",
    "scope": "GOOGLE",
    "types": [
      "dentist",
      "doctor",
      "health",
      "point_of_interest",
      "establishment"
    ],
    "user_ratings_total": 133,
    "vicinity": "M48W+W2H, C-30 City Centre, opposite Yamaha Showroom, City Center, Sector 4, Bokaro Steel City"
  },
  {
    "business_status": "OPERATIONAL",
    "geometry": {
      "location": {
        "lat": 23.6626707,
        "lng": 86.1469025
      },
      "viewport": {
        "northeast": {
          "lat": 23.6640668802915,
          "lng": 86.1482479802915
        },
        "southwest": {
          "lat": 23.6613689197085,
          "lng": 86.1455500197085
        }
      }
    },
    "icon": "https://maps.gstatic.com/mapfiles/place_api/icons/v1/png_71/generic_business-71.png",
    "icon_background_color": "#7B9EB0",
    "icon_mask_base_uri": "https://maps.gstatic.com/mapfiles/place_api/icons/v2/generic_pinlet",
    "name": "MyDentist Bokaro",
    "opening_hours": {
      "open_now": true
    },
    "photos": [
      {
        "height": 4000,
        "html_attributions": [
          "<a href=\"https://maps.google.com/maps/contrib/105241059652428041945\">Mydentist Bokaro, 3/B,Bokaro</a>"
        ],
        "photo_reference": "AdCG2DMAyxMqaN80FRNAjEdBTDUu6DzQUUhkbUzbELJ1vsPGvEj5LipCBUA_2xM7BxWYC96JCi5w-7x5rDBA1a9mH6kn4rJ5-phI3tnvU68mNv3zGS6ao_YwhrN656vSU4aZs3exF3AuhpLPlLt0EMmTEDjpn9Nfo-pY8_6irv6uX74jz48Q",
        "width": 3000
      }
    ],
    "place_id": "ChIJ4WyY960j9DkR8ST5UdOHXSU",
    "plus_code": {
      "compound_code": "M47W+3Q Bokaro Steel City, Jharkhand, India",
      "global_code": "7MM8M47W+3Q"
    },
    "rating": 4.3,
    "reference": "ChIJ4WyY960j9DkR8ST5UdOHXSU",
    "scope": "GOOGLE",
    "types": [
      "school",
      "dentist",
      "health",
      "point_of_interest",
      "establishment"
    ],
    "user_ratings_total": 15,
    "vicinity": "Dr Dinesh Kumar Pandey, sector 3/B, 449, near Bokaro Mall, Bokaro Steel City"
  },
  {
    "business_status": "OPERATIONAL",
    "geometry": {
      "location": {
        "lat": 23.6674318,
        "lng": 86.14140189999999
      },
      "viewport": {
        "northeast": {
          "lat": 23.6687423802915,
          "lng": 86.1427382802915
        },
        "southwest": {
          "lat": 23.66604441970849,
          "lng": 86.14004031970848
        }
      }
    },
    "icon": "https://maps.gstatic.com/mapfiles/place_api/icons/v1/png_71/generic_business-71.png",
    "icon_background_color": "#7B9EB0",
    "icon_mask_base_uri": "https://maps.gstatic.com/mapfiles/place_api/icons/v2/generic_pinlet",
    "name": "Churi Mahal",
    "place_id": "ChIJYYlP0TUj9DkR9ZgVLju4Sdo",
    "plus_code": {
      "compound_code": "M48R+XH Bokaro Steel City, Jharkhand, India",
      "global_code": "7MM8M48R+XH"
    },
    "reference": "ChIJYYlP0TUj9DkR9ZgVLju4Sdo",
    "scope": "GOOGLE",
    "types": [
      "dentist",
      "health",
      "point_of_interest",
      "establishment"
    ],
    "vicinity": "Club more sec12, Bokaro Steel City"
  },
  {
    "business_status": "OPERATIONAL",
    "geometry": {
      "location": {
        "lat": 23.6674664,
        "lng": 86.14135
      },
      "viewport": {
        "northeast": {
          "lat": 23.6687775302915,
          "lng": 86.1426669802915
        },
        "southwest": {
          "lat": 23.6660795697085,
          "lng": 86.13996901970849
        }
      }
    },
    "icon": "https://maps.gstatic.com/mapfiles/place_api/icons/v1/png_71/generic_business-71.png",
    "icon_background_color": "#7B9EB0",
    "icon_mask_base_uri": "https://maps.gstatic.com/mapfiles/place_api/icons/v2/generic_pinlet",
    "name": "Birsa dental care centre",
    "opening_hours": {
      "open_now": false
    },
    "place_id": "ChIJKfR8jFIj9DkR1sui8B7CFM8",
    "rating": 3,
    "reference": "ChIJKfR8jFIj9DkR1sui8B7CFM8",
    "scope": "GOOGLE",
    "types": [
      "dentist",
      "health",
      "point_of_interest",
      "establishment"
    ],
    "user_ratings_total": 2,
    "vicinity": "M48R+XGQ, Tupkadih main road NearSBI Bank, Bokaro Steel City"
  },
  {
    "business_status": "OPERATIONAL",
    "geometry": {
      "location": {
        "lat": 23.6776293,
        "lng": 86.161459
      },
      "viewport": {
        "northeast": {
          "lat": 23.6789771302915,
          "lng": 86.1627387802915
        },
        "southwest": {
          "lat": 23.6762791697085,
          "lng": 86.1600408197085
        }
      }
    },
    "icon": "https://maps.gstatic.com/mapfiles/place_api/icons/v1/png_71/generic_business-71.png",
    "icon_background_color": "#7B9EB0",
    "icon_mask_base_uri": "https://maps.gstatic.com/mapfiles/place_api/icons/v2/generic_pinlet",
    "name": "Dr Lata Manjari(Dental Hub)",
    "place_id": "ChIJaUksOhQj9DkReM7_YC2v4Vk",
    "plus_code": {
      "compound_code": "M5H6+3H Bokaro Steel City, Jharkhand, India",
      "global_code": "7MM8M5H6+3H"
    },
    "rating": 5,
    "reference": "ChIJaUksOhQj9DkReM7_YC2v4Vk",
    "scope": "GOOGLE",
    "types": [
      "dentist",
      "health",
      "point_of_interest",
      "establishment"
    ],
    "user_ratings_total": 1,
    "vicinity": "House 4182, Sector 4-F, Sector 4, Bokaro Steel City"
  },
  {
    "business_status": "OPERATIONAL",
    "geometry": {
      "location": {
        "lat": 23.6870953,
        "lng": 86.1429284
      },
      "viewport": {
        "northeast": {
          "lat": 23.68844413029151,
          "lng": 86.14430468029151
        },
        "southwest": {
          "lat": 23.6857461697085,
          "lng": 86.1416067197085
        }
      }
    },
    "icon": "https://maps.gstatic.com/mapfiles/place_api/icons/v1/png_71/generic_business-71.png",
    "icon_background_color": "#7B9EB0",
    "icon_mask_base_uri": "https://maps.gstatic.com/mapfiles/place_api/icons/v2/generic_pinlet",
    "name": "शाहीबा डेन्टल हाऊस",
    "place_id": "ChIJ9WMik1wi9DkRWAfKH0yJ2W4",
    "plus_code": {
      "compound_code": "M4PV+R5 Bokaro Steel City, Jharkhand, India",
      "global_code": "7MM8M4PV+R5"
    },
    "reference": "ChIJ9WMik1wi9DkRWAfKH0yJ2W4",
    "scope": "GOOGLE",
    "types": [
      "dentist",
      "health",
      "point_of_interest",
      "establishment"
    ],
    "vicinity": "India"
  },
  {
    "business_status": "OPERATIONAL",
    "geometry": {
      "location": {
        "lat": 23.69069439999999,
        "lng": 86.1495047
      },
      "viewport": {
        "northeast": {
          "lat": 23.6920420802915,
          "lng": 86.15085363029151
        },
        "southwest": {
          "lat": 23.6893441197085,
          "lng": 86.1481556697085
        }
      }
    },
    "icon": "https://maps.gstatic.com/mapfiles/place_api/icons/v1/png_71/generic_business-71.png",
    "icon_background_color": "#7B9EB0",
    "icon_mask_base_uri": "https://maps.gstatic.com/mapfiles/place_api/icons/v2/generic_pinlet",
    "name": "Dental Care",
    "place_id": "ChIJKSSyA-gj9DkRo8el432lFsI",
    "plus_code": {
      "compound_code": "M4RX+7R Bokaro Steel City, Jharkhand, India",
      "global_code": "7MM8M4RX+7R"
    },
    "reference": "ChIJKSSyA-gj9DkRo8el432lFsI",
    "scope": "GOOGLE",
    "types": [
      "dentist",
      "health",
      "point_of_interest",
      "establishment"
    ],
    "vicinity": "Center Market, B Road, Sector 9, Bokaro Steel City"
  },
  {
    "business_status": "OPERATIONAL",
    "geometry": {
      "location": {
        "lat": 23.6919206,
        "lng": 86.1487932
      },
      "viewport": {
        "northeast": {
          "lat": 23.6932692802915,
          "lng": 86.15013078029152
        },
        "southwest": {
          "lat": 23.6905713197085,
          "lng": 86.1474328197085
        }
      }
    },
    "icon": "https://maps.gstatic.com/mapfiles/place_api/icons/v1/png_71/generic_business-71.png",
    "icon_background_color": "#7B9EB0",
    "icon_mask_base_uri": "https://maps.gstatic.com/mapfiles/place_api/icons/v2/generic_pinlet",
    "name": "Smile dental",
    "opening_hours": {
      "open_now": false
    },
    "photos": [
      {
        "height": 4024,
        "html_attributions": [
          "<a href=\"https://maps.google.com/maps/contrib/110900184828507263544\">Smile dental</a>"
        ],
        "photo_reference": "AdCG2DOsRCJfxC0rrJImjr6OO37wH5_2TVxkqYTNRUrFNv8LXJvGTDmdRFwv3X00gA4gCnBRpyO-PUnH0r2Aw7ZguJFvmkj8ra_mqX8SbzdMI8-AA5rPicHPccuj8SwcmXhjPOO-e7xG4PahSyuoh41cW4BZwBeTday1pchOlH7rnBS4Cmg",
        "width": 6048
      }
    ],
    "place_id": "ChIJeR7ImVYj9DkR7m6lg1PDHbw",
    "plus_code": {
      "compound_code": "M4RX+QG Bokaro Steel City, Jharkhand, India",
      "global_code": "7MM8M4RX+QG"
    },
    "rating": 5,
    "reference": "ChIJeR7ImVYj9DkR7m6lg1PDHbw",
    "scope": "GOOGLE",
    "types": [
      "dentist",
      "health",
      "point_of_interest",
      "establishment"
    ],
    "user_ratings_total": 23,
    "vicinity": "plot F4, shoping center, Indian Health Care Hospital, B Road, Sector 9, Bokaro Steel City"
  },
  {
    "business_status": "OPERATIONAL",
    "geometry": {
      "location": {
        "lat": 23.6505834,
        "lng": 86.13662190000001
      },
      "viewport": {
        "northeast": {
          "lat": 23.6519741802915,
          "lng": 86.1379962802915
        },
        "southwest": {
          "lat": 23.6492762197085,
          "lng": 86.1352983197085
        }
      }
    },
    "icon": "https://maps.gstatic.com/mapfiles/place_api/icons/v1/png_71/generic_business-71.png",
    "icon_background_color": "#7B9EB0",
    "icon_mask_base_uri": "https://maps.gstatic.com/mapfiles/place_api/icons/v2/generic_pinlet",
    "name": "Dr. K. D. Rai",
    "place_id": "ChIJu5RCL6cj9DkRsGk1OysUhAo",
    "rating": 5,
    "reference": "ChIJu5RCL6cj9DkRsGk1OysUhAo",
    "scope": "GOOGLE",
    "types": [
      "dentist",
      "health",
      "point_of_interest",
      "establishment"
    ],
    "user_ratings_total": 5,
    "vicinity": "M42P+6JQ, Co-Operative Colony, Bokaro Steel City"
  },
  {
    "business_status": "OPERATIONAL",
    "geometry": {
      "location": {
        "lat": 23.6516629,
        "lng": 86.1344946
      },
      "viewport": {
        "northeast": {
          "lat": 23.6530230802915,
          "lng": 86.13585098029151
        },
        "southwest": {
          "lat": 23.6503251197085,
          "lng": 86.1331530197085
        }
      }
    },
    "icon": "https://maps.gstatic.com/mapfiles/place_api/icons/v1/png_71/generic_business-71.png",
    "icon_background_color": "#7B9EB0",
    "icon_mask_base_uri": "https://maps.gstatic.com/mapfiles/place_api/icons/v2/generic_pinlet",
    "name": "City Dental Clinic",
    "place_id": "ChIJpyn8bCUj9DkRCT94G1QpdJ4",
    "plus_code": {
      "compound_code": "M42M+MQ Bokaro Steel City, Jharkhand, India",
      "global_code": "7MM8M42M+MQ"
    },
    "reference": "ChIJpyn8bCUj9DkRCT94G1QpdJ4",
    "scope": "GOOGLE",
    "types": [
      "dentist",
      "health",
      "point_of_interest",
      "establishment"
    ],
    "vicinity": "Plot No. 20, Co-Operative Colony, Police Line, Bokaro Steel City"
  },
  {
    "business_status": "OPERATIONAL",
    "geometry": {
      "location": {
        "lat": 23.6474198,
        "lng": 86.1339833
      },
      "viewport": {
        "northeast": {
          "lat": 23.6488147802915,
          "lng": 86.1352395802915
        },
        "southwest": {
          "lat": 23.6461168197085,
          "lng": 86.13254161970849
        }
      }
    },
    "icon": "https://maps.gstatic.com/mapfiles/place_api/icons/v1/png_71/generic_business-71.png",
    "icon_background_color": "#7B9EB0",
    "icon_mask_base_uri": "https://maps.gstatic.com/mapfiles/place_api/icons/v2/generic_pinlet",
    "name": "Dr annu's dental care",
    "opening_hours": {
      "open_now": false
    },
    "place_id": "ChIJpehIqXEj9DkRx2sE1JUseI0",
    "plus_code": {
      "compound_code": "J4WM+XH Bokaro Steel City, Jharkhand, India",
      "global_code": "7MM8J4WM+XH"
    },
    "rating": 5,
    "reference": "ChIJpehIqXEj9DkRx2sE1JUseI0",
    "scope": "GOOGLE",
    "types": [
      "dentist",
      "health",
      "point_of_interest",
      "establishment"
    ],
    "user_ratings_total": 1,
    "vicinity": "139, Co-operative Colony Road, Cooperative Colony, Bokaro Steel City"
  },
  {
    "business_status": "OPERATIONAL",
    "geometry": {
      "location": {
        "lat": 23.648186,
        "lng": 86.13200309999999
      },
      "viewport": {
        "northeast": {
          "lat": 23.6495593302915,
          "lng": 86.1333026302915
        },
        "southwest": {
          "lat": 23.64686136970849,
          "lng": 86.13060466970849
        }
      }
    },
    "icon": "https://maps.gstatic.com/mapfiles/place_api/icons/v1/png_71/generic_business-71.png",
    "icon_background_color": "#7B9EB0",
    "icon_mask_base_uri": "https://maps.gstatic.com/mapfiles/place_api/icons/v2/generic_pinlet",
    "name": "DR. N. M. DENTAL CENTRE - Best Dental Clinic in Bokaro",
    "opening_hours": {
      "open_now": false
    },
    "photos": [
      {
        "height": 3000,
        "html_attributions": [
          "<a href=\"https://maps.google.com/maps/contrib/109542258802173978060\">DR. N. M. DENTAL CENTRE - Best Dental Clinic in Bokaro</a>"
        ],
        "photo_reference": "AdCG2DOb7mtbzNM0cRj5LG0_v2_LL2FogwnCDSsBR2e9PyyW98fDJOcki5ovBkJNGP1mnsUxsOABqYiX-70qnFafVQb9PO201KVG-kFHgTwesmB0HlpO6G1PDv6rwtSk7w9CcI02v_mSW-Qi3DF5Itszux2Aje4L1FOdQKOZqD976gNeC37e",
        "width": 4000
      }
    ],
    "place_id": "ChIJMThRMQcj9DkRl-sgbjHGAjw",
    "plus_code": {
      "compound_code": "J4XJ+7R Bokaro Steel City, Jharkhand, India",
      "global_code": "7MM8J4XJ+7R"
    },
    "rating": 5,
    "reference": "ChIJMThRMQcj9DkRl-sgbjHGAjw",
    "scope": "GOOGLE",
    "types": [
      "dentist",
      "doctor",
      "health",
      "point_of_interest",
      "establishment"
    ],
    "user_ratings_total": 45,
    "vicinity": "opposite Hotel Reliance, Plot No. 138, Co-Operative Colony, Police Line, Bokaro Steel City"
  },
  {
    "business_status": "OPERATIONAL",
    "geometry": {
      "location": {
        "lat": 23.6970223,
        "lng": 86.14778199999999
      },
      "viewport": {
        "northeast": {
          "lat": 23.6983751302915,
          "lng": 86.14912358029149
        },
        "southwest": {
          "lat": 23.6956771697085,
          "lng": 86.14642561970848
        }
      }
    },
    "icon": "https://maps.gstatic.com/mapfiles/place_api/icons/v1/png_71/generic_business-71.png",
    "icon_background_color": "#7B9EB0",
    "icon_mask_base_uri": "https://maps.gstatic.com/mapfiles/place_api/icons/v2/generic_pinlet",
    "name": "BHARTI DENTAL CARE",
    "place_id": "ChIJlxjvL2ki9DkRPW5t2-JZOtk",
    "reference": "ChIJlxjvL2ki9DkRPW5t2-JZOtk",
    "scope": "GOOGLE",
    "types": [
      "dentist",
      "health",
      "point_of_interest",
      "establishment"
    ],
    "vicinity": "M4WX+R43, Rani Pokhar Road, Rani Pokhar Village, Bokaro Steel City"
  },
  {
    "business_status": "OPERATIONAL",
    "geometry": {
      "location": {
        "lat": 23.6525965,
        "lng": 86.178781
      },
      "viewport": {
        "northeast": {
          "lat": 23.65395163029151,
          "lng": 86.1801098302915
        },
        "southwest": {
          "lat": 23.6512536697085,
          "lng": 86.1774118697085
        }
      }
    },
    "icon": "https://maps.gstatic.com/mapfiles/place_api/icons/v1/png_71/generic_business-71.png",
    "icon_background_color": "#7B9EB0",
    "icon_mask_base_uri": "https://maps.gstatic.com/mapfiles/place_api/icons/v2/generic_pinlet",
    "name": "I N family dental clinic",
    "place_id": "ChIJ3V4nZ0si9DkR8sXgzAI4G_w",
    "plus_code": {
      "compound_code": "M53H+2G Bokaro Steel City, Jharkhand, India",
      "global_code": "7MM8M53H+2G"
    },
    "reference": "ChIJ3V4nZ0si9DkR8sXgzAI4G_w",
    "scope": "GOOGLE",
    "types": [
      "dentist",
      "health",
      "point_of_interest",
      "establishment"
    ],
    "vicinity": "Chira Chas, Bokaro Steel City"
  },
  {
    "business_status": "OPERATIONAL",
    "geometry": {
      "location": {
        "lat": 23.63888,
        "lng": 86.16073999999999
      },
      "viewport": {
        "northeast": {
          "lat": 23.64023923029151,
          "lng": 86.16207048029152
        },
        "southwest": {
          "lat": 23.6375412697085,
          "lng": 86.15937251970851
        }
      }
    },
    "icon": "https://maps.gstatic.com/mapfiles/place_api/icons/v1/png_71/generic_business-71.png",
    "icon_background_color": "#7B9EB0",
    "icon_mask_base_uri": "https://maps.gstatic.com/mapfiles/place_api/icons/v2/generic_pinlet",
    "name": "Dental Clinic Lab",
    "opening_hours": {
      "open_now": false
    },
    "photos": [
      {
        "height": 2048,
        "html_attributions": [
          "<a href=\"https://maps.google.com/maps/contrib/112667608005685465115\">Dental Clinic Lab</a>"
        ],
        "photo_reference": "AdCG2DPtqQz7aVef8zkO5jVnqCk3q5F_31Fyxo35X1cl97OMkz1Oeg0A3jCR--p-uDGg-S23FT1xS_BU6Z5CTukw2fuZIHzmgeYVdtcVt_D5ecH2W_BLRH7zaLCQQOcRdbsYPaDLNnSUab_Na06M_eEEx17iBXZYBU7-ODDcAF4BWlFHFfiP",
        "width": 1536
      }
    ],
    "place_id": "ChIJo9OsTekj9DkRZ6VPacriK0o",
    "plus_code": {
      "compound_code": "J5Q6+H7 Bokaro Steel City, Jharkhand, India",
      "global_code": "7MM8J5Q6+H7"
    },
    "rating": 2.7,
    "reference": "ChIJo9OsTekj9DkRZ6VPacriK0o",
    "scope": "GOOGLE",
    "types": [
      "dentist",
      "health",
      "point_of_interest",
      "establishment"
    ],
    "user_ratings_total": 3,
    "vicinity": "near Garga Bridge, Chas, near Garga Bridge, Bokaro Steel City"
  },
  {
    "business_status": "OPERATIONAL",
    "geometry": {
      "location": {
        "lat": 23.63849099999999,
        "lng": 86.1610211
      },
      "viewport": {
        "northeast": {
          "lat": 23.6398924302915,
          "lng": 86.1624057802915
        },
        "southwest": {
          "lat": 23.6371944697085,
          "lng": 86.15970781970849
        }
      }
    },
    "icon": "https://maps.gstatic.com/mapfiles/place_api/icons/v1/png_71/generic_business-71.png",
    "icon_background_color": "#7B9EB0",
    "icon_mask_base_uri": "https://maps.gstatic.com/mapfiles/place_api/icons/v2/generic_pinlet",
    "name": "Dr. B. CHATTOPADHYAY",
    "place_id": "ChIJg0bitO4j9DkRhVBA06jApoE",
    "plus_code": {
      "compound_code": "J5Q6+9C Chas, Jharkhand, India",
      "global_code": "7MM8J5Q6+9C"
    },
    "reference": "ChIJg0bitO4j9DkRhVBA06jApoE",
    "scope": "GOOGLE",
    "types": [
      "dentist",
      "health",
      "point_of_interest",
      "establishment"
    ],
    "vicinity": "India"
  },
  {
    "business_status": "OPERATIONAL",
    "geometry": {
      "location": {
        "lat": 23.6382061,
        "lng": 86.1602849
      },
      "viewport": {
        "northeast": {
          "lat": 23.6395596302915,
          "lng": 86.16163603029149
        },
        "southwest": {
          "lat": 23.63686166970849,
          "lng": 86.15893806970848
        }
      }
    },
    "icon": "https://maps.gstatic.com/mapfiles/place_api/icons/v1/png_71/generic_business-71.png",
    "icon_background_color": "#7B9EB0",
    "icon_mask_base_uri": "https://maps.gstatic.com/mapfiles/place_api/icons/v2/generic_pinlet",
    "name": "\" The Dental Planet \"(Family of complete dental solution)",
    "opening_hours": {
      "open_now": false
    },
    "photos": [
      {
        "height": 722,
        "html_attributions": [
          "<a href=\"https://maps.google.com/maps/contrib/102962858478964734637\">&quot; The Dental Planet &quot;(Family of complete dental solution)</a>"
        ],
        "photo_reference": "AdCG2DOMY_PGPLgzu-ZsaL2Dr-BYfbHEjL9kI7ffXyi1iuOZ-cpdNirEvuZ-2gbWM8ScfnYGZu3wbRiA8QWEPiGdJjQLQP0Cj2MJy3b_Joy7b-0UQ85t4-umqMI2HkZ0ilz5V1XPeOJ4gG35X3QxyIB2_HfDW0avPqSB31D3wvzlK2crRXgr",
        "width": 1599
      }
    ],
    "place_id": "ChIJrWXGy7sj9DkRHCLXMpyjSIw",
    "plus_code": {
      "compound_code": "J5Q6+74 Bokaro Steel City, Jharkhand, India",
      "global_code": "7MM8J5Q6+74"
    },
    "rating": 4.6,
    "reference": "ChIJrWXGy7sj9DkRHCLXMpyjSIw",
    "scope": "GOOGLE",
    "types": [
      "dentist",
      "health",
      "point_of_interest",
      "establishment"
    ],
    "user_ratings_total": 86,
    "vicinity": "Hotel Yamuna Villa Complex. Near garga bridge. Chas, Bokaro Steel City"
  },
  {
    "business_status": "OPERATIONAL",
    "geometry": {
      "location": {
        "lat": 23.635302,
        "lng": 86.1471938
      },
      "viewport": {
        "northeast": {
          "lat": 23.63659558029151,
          "lng": 86.1484978302915
        },
        "southwest": {
          "lat": 23.6338976197085,
          "lng": 86.1457998697085
        }
      }
    },
    "icon": "https://maps.gstatic.com/mapfiles/place_api/icons/v1/png_71/generic_business-71.png",
    "icon_background_color": "#7B9EB0",
    "icon_mask_base_uri": "https://maps.gstatic.com/mapfiles/place_api/icons/v2/generic_pinlet",
    "name": "Mydentist Sector 12 Bokaro",
    "opening_hours": {
      "open_now": true
    },
    "place_id": "ChIJAWHMgV0j9DkRPboFyt7xg5E",
    "reference": "ChIJAWHMgV0j9DkRPboFyt7xg5E",
    "scope": "GOOGLE",
    "types": [
      "dentist",
      "health",
      "point_of_interest",
      "establishment"
    ],
    "vicinity": "J4PW+4VG, Sector 12, Bokaro Steel City"
  },
  {
    "business_status": "OPERATIONAL",
    "geometry": {
      "location": {
        "lat": 23.6362503,
        "lng": 86.1617438
      },
      "viewport": {
        "northeast": {
          "lat": 23.63754803029151,
          "lng": 86.16310888029152
        },
        "southwest": {
          "lat": 23.6348500697085,
          "lng": 86.16041091970851
        }
      }
    },
    "icon": "https://maps.gstatic.com/mapfiles/place_api/icons/v1/png_71/generic_business-71.png",
    "icon_background_color": "#7B9EB0",
    "icon_mask_base_uri": "https://maps.gstatic.com/mapfiles/place_api/icons/v2/generic_pinlet",
    "name": "FAITH DENTAL CLINIC",
    "place_id": "ChIJL31n8O4j9DkRYqvN-YfBHvo",
    "plus_code": {
      "compound_code": "J5P6+GM Chas, Jharkhand, India",
      "global_code": "7MM8J5P6+GM"
    },
    "reference": "ChIJL31n8O4j9DkRYqvN-YfBHvo",
    "scope": "GOOGLE",
    "types": [
      "dentist",
      "health",
      "point_of_interest",
      "establishment"
    ],
    "vicinity": "India"
  },
  {
    "business_status": "OPERATIONAL",
    "geometry": {
      "location": {
        "lat": 23.641766,
        "lng": 86.11960839999999
      },
      "viewport": {
        "northeast": {
          "lat": 23.64302968029151,
          "lng": 86.1209604802915
        },
        "southwest": {
          "lat": 23.6403317197085,
          "lng": 86.11826251970848
        }
      }
    },
    "icon": "https://maps.gstatic.com/mapfiles/place_api/icons/v1/png_71/generic_business-71.png",
    "icon_background_color": "#7B9EB0",
    "icon_mask_base_uri": "https://maps.gstatic.com/mapfiles/place_api/icons/v2/generic_pinlet",
    "name": "G.S. DENTAL CLINIC",
    "photos": [
      {
        "height": 4096,
        "html_attributions": [
          "<a href=\"https://maps.google.com/maps/contrib/105067867882169947521\">UNBOXING BRAIN</a>"
        ],
        "photo_reference": "AdCG2DOYYZZ0LkulOc2wMSA80Lgt_5vESO_FgewaspaLBqM7Irntj3K6RveKe7lv0UNG5YpOhRVdCmArq2SxTr3DyyUSjeaEGNQbV6p5KTz0bKIzoqudUhafBuqcARd_GI9yiWsvGeEo4NXeYwFFBf_BiMGEk9DsaSv1qcE4Ury8bbOl3CaG",
        "width": 2304
      }
    ],
    "place_id": "ChIJP8sUmWwj9DkRXP4nzcojeSE",
    "reference": "ChIJP8sUmWwj9DkRXP4nzcojeSE",
    "scope": "GOOGLE",
    "types": [
      "dentist",
      "health",
      "point_of_interest",
      "establishment"
    ],
    "vicinity": "J4R9+PR5, National Highway 320, Siwandih, Bokaro Steel City"
  },
  {
    "business_status": "OPERATIONAL",
    "geometry": {
      "location": {
        "lat": 23.6705512,
        "lng": 86.1959306
      },
      "viewport": {
        "northeast": {
          "lat": 23.6721487802915,
          "lng": 86.1973376802915
        },
        "southwest": {
          "lat": 23.6694508197085,
          "lng": 86.19463971970849
        }
      }
    },
    "icon": "https://maps.gstatic.com/mapfiles/place_api/icons/v1/png_71/generic_business-71.png",
    "icon_background_color": "#7B9EB0",
    "icon_mask_base_uri": "https://maps.gstatic.com/mapfiles/place_api/icons/v2/generic_pinlet",
    "name": "Dental Clinic",
    "place_id": "ChIJeXmet4Qh9DkRswM-NkATHZo",
    "reference": "ChIJeXmet4Qh9DkRswM-NkATHZo",
    "scope": "GOOGLE",
    "types": [
      "dentist",
      "health",
      "point_of_interest",
      "establishment"
    ],
    "vicinity": "M5CW+69F, Bokaro Steel City"
  },
  {
    "business_status": "OPERATIONAL",
    "geometry": {
      "location": {
        "lat": 23.6387414,
        "lng": 86.12049739999999
      },
      "viewport": {
        "northeast": {
          "lat": 23.64003428029151,
          "lng": 86.1218322302915
        },
        "southwest": {
          "lat": 23.6373363197085,
          "lng": 86.1191342697085
        }
      }
    },
    "icon": "https://maps.gstatic.com/mapfiles/place_api/icons/v1/png_71/generic_business-71.png",
    "icon_background_color": "#7B9EB0",
    "icon_mask_base_uri": "https://maps.gstatic.com/mapfiles/place_api/icons/v2/generic_pinlet",
    "name": "Shree Jee Care (Eye and Dental Clinic)",
    "opening_hours": {
      "open_now": false
    },
    "photos": [
      {
        "height": 3024,
        "html_attributions": [
          "<a href=\"https://maps.google.com/maps/contrib/105619555222844762890\">Shree Jee Care (Eye and Dental Clinic)</a>"
        ],
        "photo_reference": "AdCG2DMfeJpuvsFgcuCV8478MBvyiRH_dI6jb2k6x_Iogy2tk-aBQozvBeJbO7z3EZy21lyEXiyriw85_BYtWzHGA7xqZJ27-Sdzf6ZbMGaOiKLdRotUqTXyxq7UKAgVLXsYAwVfQhO1olSu7EB7O2X5GeehaWuC2lT0SWYFQRHTr0UAaQsV",
        "width": 4032
      }
    ],
    "place_id": "ChIJB1jJ174j9DkRcB-Y4kbthG8",
    "plus_code": {
      "compound_code": "J4QC+F5 Bokaro Steel City, Jharkhand, India",
      "global_code": "7MM8J4QC+F5"
    },
    "rating": 5,
    "reference": "ChIJB1jJ174j9DkRcB-Y4kbthG8",
    "scope": "GOOGLE",
    "types": [
      "dentist",
      "health",
      "point_of_interest",
      "establishment"
    ],
    "user_ratings_total": 38,
    "vicinity": "Plot No. 4, Bari Co-operative Colony, Siwandih, Bokaro Steel City"
  },
  {
    "business_status": "OPERATIONAL",
    "geometry": {
      "location": {
        "lat": 23.6369514,
        "lng": 86.1197249
      },
      "viewport": {
        "northeast": {
          "lat": 23.63829838029151,
          "lng": 86.1210732802915
        },
        "southwest": {
          "lat": 23.6356004197085,
          "lng": 86.11837531970849
        }
      }
    },
    "icon": "https://maps.gstatic.com/mapfiles/place_api/icons/v1/png_71/generic_business-71.png",
    "icon_background_color": "#7B9EB0",
    "icon_mask_base_uri": "https://maps.gstatic.com/mapfiles/place_api/icons/v2/generic_pinlet",
    "name": "OM SHANTI DENTAL CLINIC",
    "photos": [
      {
        "height": 1920,
        "html_attributions": [
          "<a href=\"https://maps.google.com/maps/contrib/114517593446914906055\">Nishu Pandey</a>"
        ],
        "photo_reference": "AdCG2DMYrnhqid_hlGAkFPMVpylCPJyqbctNpH1K680MnxkgrDQ1z64zkzuacViV9kLphY3xqsovHf0iWl3XfdcdM4rqWWEqtiKU5LhjtohfxHjYqd5M-QtvzxTWjBrJyQ7wYl4Uc4PsblgILNJYbm-hxebknNMxe0Vy_Ai0zXBVJup8OLI",
        "width": 1080
      }
    ],
    "place_id": "ChIJHfy4r24j9DkRVYaBgzel2_k",
    "plus_code": {
      "compound_code": "J4P9+QV Tentulia, Jharkhand, India",
      "global_code": "7MM8J4P9+QV"
    },
    "reference": "ChIJHfy4r24j9DkRVYaBgzel2_k",
    "scope": "GOOGLE",
    "types": [
      "dentist",
      "health",
      "point_of_interest",
      "establishment"
    ],
    "vicinity": "India"
  }
]